[
  {
    "name": "Palacio das Esmeraldas",
    "lat": -16.681105,
    "lng": -49.256208
  },
  {
    "name": "Correios",
    "lat": -16.679806,
    "lng": -49.257677
  },
  {
    "name": "PUC Goiás",
    "lat": -16.678510,
    "lng": -49.245315
  },
  {
    "name": "Estadio Serra Dourada",
    "lat": -16.699252,
    "lng": -49.234222
  },
  {
    "name": "Shopping Flamboyant",
    "lat": -16.710521,
    "lng": -49.236425
  },
  {
    "name": "Parque Vaca Brava",
    "lat": -16.710085,
    "lng": -49.270879
  },
  {
    "name": "Bosque dos Buritis",
    "lat": -16.682040,
    "lng": -49.261581
  },
  {
    "name": "Parque Areião",
    "lat": -16.707157,
    "lng": -49.256633
  }
]
